var rfStations={"features": [{"geometry": {"coordinates": [-155.6508, 19.8612], "type": "Point"}, "properties": {"Datastream": "nws", "Name": "Waikii (HI90)", "Network": "Hydronet", "SKN": 100.3, "total_rf_mm": 58.674}, "type": "Feature"}, {"geometry": {"coordinates": [-155.6786111, 19.90222222], "type": "Point"}, "properties": {"Datastream": "hads", "Name": "PTA Keamuku", "Network": "RAWS", "SKN": 101.1, "total_rf_mm": 90.678}, "type": "Feature"}, {"geometry": {"coordinates": [-159.3972052, 21.96491954], "type": "Point"}, "properties": {"Datastream": "ncei", "Name": "PUHI 1013", "Network": "COOP", "SKN": 1013.0, "total_rf_mm": 64.6}, "type": "Feature"}, {"geometry": {"coordinates": [-155.6130556, 19.83638889], "type": "Point"}, "properties": {"Datastream": "hads", "Name": "Ahumoa", "Network": "RAWS", "SKN": 102.8, "total_rf_mm": 66.54799999999989}, "type": "Feature"}, {"geometry": {"coordinates": [-159.34220630000002, 21.98156999], "type": "Point"}, "properties": {"Datastream": "nws", "Name": "LIHUE WSO AP 1020.1", "Network": "ASOS_AWOS", "SKN": 1020.1, "total_rf_mm": 17.018}, "type": "Feature"}, {"geometry": {"coordinates": [-159.338, 21.987], "type": "Point"}, "properties": {"Datastream": "ncei", "Name": "LIHUE 1.3 NE", "Network": "CoCoRaHS", "SKN": 1020.6, "total_rf_mm": 40.3}, "type": "Feature"}, {"geometry": {"coordinates": [-159.3586, 21.9923], "type": "Point"}, "properties": {"Datastream": "ncei", "Name": "LIHUE 1.2 NNW", "Network": "CoCoRaHS", "SKN": 1022.1, "total_rf_mm": 36.6}, "type": "Feature"}, {"geometry": {"coordinates": [-155.5574989, 19.99694234], "type": "Point"}, "properties": {"Datastream": "hads", "Name": "Mana", "Network": "RAWS", "SKN": 1029.0, "total_rf_mm": 16.764}, "type": "Feature"}, {"geometry": {"coordinates": [-159.6958333, 22.04083333], "type": "Point"}, "properties": {"Datastream": "hads", "Name": "Puu Opae", "Network": "RAWS", "SKN": 1036.0, "total_rf_mm": 54.61}, "type": "Feature"}, {"geometry": {"coordinates": [-159.5925, 22.08972222], "type": "Point"}, "properties": {"Datastream": "hads", "Name": "Waialae", "Network": "USGS", "SKN": 1042.0, "total_rf_mm": 153.162}, "type": "Feature"}, {"geometry": {"coordinates": [-159.52583330000002, 22.07416667], "type": "Point"}, "properties": {"Datastream": "hads", "Name": "Mt. Waialeale", "Network": "USGS", "SKN": 1047.0, "total_rf_mm": 478.028}, "type": "Feature"}, {"geometry": {"coordinates": [-159.4922222, 22.06555556], "type": "Point"}, "properties": {"Datastream": "hads", "Name": "N. Wailua", "Network": "USGS", "SKN": 1051.0, "total_rf_mm": 292.608}, "type": "Feature"}, {"geometry": {"coordinates": [-159.387, 22.0239], "type": "Point"}, "properties": {"Datastream": "hads", "Name": "Lihue Vrty Sta", "Network": "Hydronet", "SKN": 1059.0, "total_rf_mm": 86.10600000000001}, "type": "Feature"}, {"geometry": {"coordinates": [-159.3962, 22.066], "type": "Point"}, "properties": {"Datastream": "hads", "Name": "Wailua UH Exp Stn", "Network": "Hydronet", "SKN": 1061.0, "total_rf_mm": 81.0260000000001}, "type": "Feature"}, {"geometry": {"coordinates": [-159.387, 22.0239], "type": "Point"}, "properties": {"Datastream": "ncei", "Name": "LIHUE VRTY STA 1062.1", "Network": "COOP", "SKN": 1062.1, "total_rf_mm": 2.4}, "type": "Feature"}, {"geometry": {"coordinates": [-159.6791667, 22.08916667], "type": "Point"}, "properties": {"Datastream": "nws", "Name": "Puu Lua ", "Network": "RAWS", "SKN": 1069.0, "total_rf_mm": 0.0}, "type": "Feature"}, {"geometry": {"coordinates": [-155.5452778, 19.68277778], "type": "Point"}, "properties": {"Datastream": "hads", "Name": "PTA East", "Network": "RAWS", "SKN": 107.4, "total_rf_mm": 89.40799999999999}, "type": "Feature"}, {"geometry": {"coordinates": [-159.72609419999998, 22.13296912], "type": "Point"}, "properties": {"Datastream": "hads", "Name": "Makaha Ridge", "Network": "RAWS", "SKN": 1074.0, "total_rf_mm": 50.8}, "type": "Feature"}, {"geometry": {"coordinates": [-159.6448, 22.1481], "type": "Point"}, "properties": {"Datastream": "nws", "Name": "Kokee", "Network": "Hydronet", "SKN": 1076.0, "total_rf_mm": 67.818}, "type": "Feature"}, {"geometry": {"coordinates": [-159.6425, 22.1275], "type": "Point"}, "properties": {"Datastream": "hads", "Name": "Waiakoali Camp", "Network": "USGS", "SKN": 1082.0, "total_rf_mm": 137.16}, "type": "Feature"}, {"geometry": {"coordinates": [-159.6258333, 22.12027778], "type": "Point"}, "properties": {"Datastream": "hads", "Name": "Mohihi Crsg", "Network": "USGS", "SKN": 1083.0, "total_rf_mm": 152.654}, "type": "Feature"}, {"geometry": {"coordinates": [-159.6091667, 22.1575], "type": "Point"}, "properties": {"Datastream": "hads", "Name": "Kilohana", "Network": "USGS", "SKN": 1084.0, "total_rf_mm": 342.64599999999996}, "type": "Feature"}, {"geometry": {"coordinates": [-155.6261111, 19.74583333], "type": "Point"}, "properties": {"Datastream": "hads", "Name": "PTA Range 17", "Network": "RAWS", "SKN": 109.0, "total_rf_mm": 33.528}, "type": "Feature"}, {"geometry": {"coordinates": [-159.3857, 22.1021], "type": "Point"}, "properties": {"Datastream": "hads", "Name": "Kapahi", "Network": "Hydronet", "SKN": 1094.2, "total_rf_mm": 123.443999999996}, "type": "Feature"}, {"geometry": {"coordinates": [-159.3758, 22.0936], "type": "Point"}, "properties": {"Datastream": "ncei", "Name": "KAPAA 1.4 W", "Network": "CoCoRaHS", "SKN": 1094.3, "total_rf_mm": 75.0}, "type": "Feature"}, {"geometry": {"coordinates": [-159.3662, 22.0805], "type": "Point"}, "properties": {"Datastream": "ncei", "Name": "KAPAA 1.4 SW", "Network": "CoCoRaHS", "SKN": 1097.3, "total_rf_mm": 48.3}, "type": "Feature"}, {"geometry": {"coordinates": [-159.3786, 22.0829], "type": "Point"}, "properties": {"Datastream": "ncei", "Name": "KAPAA 1.9 WSW", "Network": "CoCoRaHS", "SKN": 1097.4, "total_rf_mm": 76.4}, "type": "Feature"}, {"geometry": {"coordinates": [-159.3122, 22.1374], "type": "Point"}, "properties": {"Datastream": "hads", "Name": "Anahola No. 2", "Network": "Hydronet", "SKN": 1111.4, "total_rf_mm": 57.149999999999196}, "type": "Feature"}, {"geometry": {"coordinates": [-159.5564, 22.1959], "type": "Point"}, "properties": {"Datastream": "nws", "Name": "PH Wainiha", "Network": "Hydronet", "SKN": 1115.1, "total_rf_mm": 23.622}, "type": "Feature"}, {"geometry": {"coordinates": [-159.4953, 22.1985], "type": "Point"}, "properties": {"Datastream": "nws", "Name": "Hanalei", "Network": "Hydronet", "SKN": 1117.8, "total_rf_mm": 85.598}, "type": "Feature"}, {"geometry": {"coordinates": [-155.4372243, 19.90722465], "type": "Point"}, "properties": {"Datastream": "hads", "Name": "Puu Mali", "Network": "RAWS", "SKN": 113.2, "total_rf_mm": 84.3279999999999}, "type": "Feature"}, {"geometry": {"coordinates": [-159.4062, 22.208000000000002], "type": "Point"}, "properties": {"Datastream": "ncei", "Name": "KILAUEA 0.3 SE", "Network": "CoCoRaHS", "SKN": 1134.1, "total_rf_mm": 56.9}, "type": "Feature"}, {"geometry": {"coordinates": [-159.4048, 22.2057], "type": "Point"}, "properties": {"Datastream": "ncei", "Name": "KILAUEA 0.5 SE", "Network": "CoCoRaHS", "SKN": 1134.2, "total_rf_mm": 42.2}, "type": "Feature"}, {"geometry": {"coordinates": [-159.3236, 22.1869], "type": "Point"}, "properties": {"Datastream": "ncei", "Name": "ANAHOLA 2.8 N", "Network": "CoCoRaHS", "SKN": 1144.1, "total_rf_mm": 43.8}, "type": "Feature"}, {"geometry": {"coordinates": [-159.3375, 22.18333333], "type": "Point"}, "properties": {"Datastream": "hads", "Name": "Moloaa Dairy", "Network": "RAWS", "SKN": 1146.0, "total_rf_mm": 51.815999999999896}, "type": "Feature"}, {"geometry": {"coordinates": [-155.51527439999998, 19.13310292], "type": "Point"}, "properties": {"Datastream": "ncei", "Name": "SEA MOUNTAIN 12.15", "Network": "COOP", "SKN": 12.15, "total_rf_mm": 6.3}, "type": "Feature"}, {"geometry": {"coordinates": [-155.3305556, 19.82111111], "type": "Point"}, "properties": {"Datastream": "hads", "Name": "Hakalau", "Network": "RAWS", "SKN": 129.0, "total_rf_mm": 267.716}, "type": "Feature"}, {"geometry": {"coordinates": [-155.2325, 19.9831], "type": "Point"}, "properties": {"Datastream": "nws", "Name": "Laupahoehoe", "Network": "Hydronet", "SKN": 133.3, "total_rf_mm": 323.342}, "type": "Feature"}, {"geometry": {"coordinates": [-155.5855501, 19.06032754], "type": "Point"}, "properties": {"Datastream": "ncei", "Name": "NAALEHU 14", "Network": "COOP", "SKN": 14.0, "total_rf_mm": 12.4}, "type": "Feature"}, {"geometry": {"coordinates": [-155.0922318, 19.78362447], "type": "Point"}, "properties": {"Datastream": "ncei", "Name": "PAPAIKOU 144.1", "Network": "COOP", "SKN": 144.1, "total_rf_mm": 78.5}, "type": "Feature"}, {"geometry": {"coordinates": [-155.8325, 20.083056], "type": "Point"}, "properties": {"Datastream": "hads", "Name": "Kohala Ranch", "Network": "RAWS", "SKN": 147.2, "total_rf_mm": 125.476}, "type": "Feature"}, {"geometry": {"coordinates": [-155.8582, 20.265], "type": "Point"}, "properties": {"Datastream": "nws", "Name": "Upolu Airport", "Network": "Hydronet", "SKN": 160.3, "total_rf_mm": 0.0}, "type": "Feature"}, {"geometry": {"coordinates": [-155.8272119, 20.23692665], "type": "Point"}, "properties": {"Datastream": "ncei", "Name": "HAWI 168", "Network": "COOP", "SKN": 168.0, "total_rf_mm": 27.3}, "type": "Feature"}, {"geometry": {"coordinates": [-155.7882, 20.1255], "type": "Point"}, "properties": {"Datastream": "hads", "Name": "Kahua Ranch HQ", "Network": "Hydronet", "SKN": 176.3, "total_rf_mm": 168.91000000000201}, "type": "Feature"}, {"geometry": {"coordinates": [-155.6816667, 20.08833333], "type": "Point"}, "properties": {"Datastream": "hads", "Name": "Kawainui", "Network": "USGS", "SKN": 185.7, "total_rf_mm": 551.942}, "type": "Feature"}, {"geometry": {"coordinates": [-155.6763867, 20.01083015], "type": "Point"}, "properties": {"Datastream": "ncei", "Name": "LALAMILO FLD OF 191.1", "Network": "COOP", "SKN": 191.1, "total_rf_mm": 6.7}, "type": "Feature"}, {"geometry": {"coordinates": [-155.6671, 20.0341], "type": "Point"}, "properties": {"Datastream": "hads", "Name": "Kamuela Upper", "Network": "Hydronet", "SKN": 192.7, "total_rf_mm": 128.778}, "type": "Feature"}, {"geometry": {"coordinates": [-155.6085, 20.0392], "type": "Point"}, "properties": {"Datastream": "hads", "Name": "Kamuela 1", "Network": "Hydronet", "SKN": 201.3, "total_rf_mm": 101.09200000000001}, "type": "Feature"}, {"geometry": {"coordinates": [-155.4793, 19.1998], "type": "Point"}, "properties": {"Datastream": "hads", "Name": "Pahala", "Network": "Hydronet", "SKN": 21.0, "total_rf_mm": 42.6719999999998}, "type": "Feature"}, {"geometry": {"coordinates": [-155.48861000000002, 19.206670000000003], "type": "Point"}, "properties": {"Datastream": "ncei", "Name": "PAHALA MAUKA 21.3", "Network": "COOP", "SKN": 21.3, "total_rf_mm": 48.2}, "type": "Feature"}, {"geometry": {"coordinates": [-155.4628, 20.0731], "type": "Point"}, "properties": {"Datastream": "nws", "Name": "Honokaa", "Network": "Hydronet", "SKN": 215.5, "total_rf_mm": 0.0}, "type": "Feature"}, {"geometry": {"coordinates": [-155.4777, 20.0417], "type": "Point"}, "properties": {"Datastream": "ncei", "Name": "HONOKAA 2.5 SSW", "Network": "CoCoRaHS", "SKN": 216.6, "total_rf_mm": 88.1}, "type": "Feature"}, {"geometry": {"coordinates": [-155.43, 20.0606], "type": "Point"}, "properties": {"Datastream": "ncei", "Name": "HONOKAA 2.7 ESE", "Network": "CoCoRaHS", "SKN": 216.9, "total_rf_mm": 85.5}, "type": "Feature"}, {"geometry": {"coordinates": [-155.3988, 20.019000000000002], "type": "Point"}, "properties": {"Datastream": "ncei", "Name": "PAAUILO 2.4 SW", "Network": "CoCoRaHS", "SKN": 221.7, "total_rf_mm": 77.3}, "type": "Feature"}, {"geometry": {"coordinates": [-155.78, 19.23222222], "type": "Point"}, "properties": {"Datastream": "hads", "Name": "Kahuku ", "Network": "RAWS", "SKN": 23.0, "total_rf_mm": 147.066}, "type": "Feature"}, {"geometry": {"coordinates": [-155.8738768, 19.27032215], "type": "Point"}, "properties": {"Datastream": "ncei", "Name": "OPIHIHALE 2 24.1", "Network": "COOP", "SKN": 24.1, "total_rf_mm": 90.0}, "type": "Feature"}, {"geometry": {"coordinates": [-156.4388486, 20.642089300000002], "type": "Point"}, "properties": {"Datastream": "ncei", "Name": "MAKENA GOLF CRS 249.1", "Network": "COOP", "SKN": 249.1, "total_rf_mm": 1.8}, "type": "Feature"}, {"geometry": {"coordinates": [-156.398497, 20.648173999999997], "type": "Point"}, "properties": {"Datastream": "ncei", "Name": "ULUPALAKUA RANCH 250", "Network": "COOP", "SKN": 250.0, "total_rf_mm": 41.9}, "type": "Feature"}, {"geometry": {"coordinates": [-156.3981, 20.6494], "type": "Point"}, "properties": {"Datastream": "hads", "Name": "Ulupalakua Ranch", "Network": "Hydronet", "SKN": 250.2, "total_rf_mm": 37.5920000000001}, "type": "Feature"}, {"geometry": {"coordinates": [-156.2669444, 20.6225], "type": "Point"}, "properties": {"Datastream": "hads", "Name": "Kepuni Gultch", "Network": "USGS", "SKN": 255.0, "total_rf_mm": 7.3660000000000005}, "type": "Feature"}, {"geometry": {"coordinates": [-156.04248, 20.662925], "type": "Point"}, "properties": {"Datastream": "ncei", "Name": "OHE'O 258.6", "Network": "COOP", "SKN": 258.6, "total_rf_mm": 84.2}, "type": "Feature"}, {"geometry": {"coordinates": [-156.15194440000002, 20.68416667], "type": "Point"}, "properties": {"Datastream": "nws", "Name": "Kaupo Gap", "Network": "RAWS", "SKN": 266.0, "total_rf_mm": 0.0}, "type": "Feature"}, {"geometry": {"coordinates": [-156.321667, 20.683056], "type": "Point"}, "properties": {"Datastream": "hads", "Name": "Kula 1", "Network": "RAWS", "SKN": 267.8, "total_rf_mm": 107.95}, "type": "Feature"}, {"geometry": {"coordinates": [-155.885, 19.4658], "type": "Point"}, "properties": {"Datastream": "hads", "Name": "Honaunau No. 2", "Network": "Hydronet", "SKN": 27.6, "total_rf_mm": 139.445999999999}, "type": "Feature"}, {"geometry": {"coordinates": [-155.9157, 19.518], "type": "Point"}, "properties": {"Datastream": "hads", "Name": "Kealakekua T.F.", "Network": "Hydronet", "SKN": 29.12, "total_rf_mm": 192.024}, "type": "Feature"}, {"geometry": {"coordinates": [-155.747, 19.135], "type": "Point"}, "properties": {"Datastream": "ncei", "Name": "HAWAIIAN OCEAN VIEW 4.7 NNE", "Network": "CoCoRaHS", "SKN": 3.22, "total_rf_mm": 36.8}, "type": "Feature"}, {"geometry": {"coordinates": [-155.669722, 19.100832999999998], "type": "Point"}, "properties": {"Datastream": "hads", "Name": "Lower Kahuku", "Network": "RAWS", "SKN": 3.9, "total_rf_mm": 93.98}, "type": "Feature"}, {"geometry": {"coordinates": [-156.4772, 20.7975], "type": "Point"}, "properties": {"Datastream": "hads", "Name": "Kealia Pond NWR ", "Network": "RAWS", "SKN": 311.2, "total_rf_mm": 0.0}, "type": "Feature"}, {"geometry": {"coordinates": [-156.4442, 20.7356], "type": "Point"}, "properties": {"Datastream": "hads", "Name": "Kihei No. 2", "Network": "Hydronet", "SKN": 311.5, "total_rf_mm": 0.507999999999981}, "type": "Feature"}, {"geometry": {"coordinates": [-156.3211, 20.7586], "type": "Point"}, "properties": {"Datastream": "hads", "Name": "Kula Branch Stn", "Network": "Hydronet", "SKN": 324.7, "total_rf_mm": 38.8619999999999}, "type": "Feature"}, {"geometry": {"coordinates": [-155.4515, 19.2759], "type": "Point"}, "properties": {"Datastream": "hads", "Name": "Kapapala Rch", "Network": "Hydronet", "SKN": 34.0, "total_rf_mm": 68.8339999999997}, "type": "Feature"}, {"geometry": {"coordinates": [-156.15, 20.82111111], "type": "Point"}, "properties": {"Datastream": "hads", "Name": "West Wailukluaiki", "Network": "USGS", "SKN": 348.5, "total_rf_mm": 315.214}, "type": "Feature"}, {"geometry": {"coordinates": [-156.0157, 20.7946], "type": "Point"}, "properties": {"Datastream": "nws", "Name": "Hana AP", "Network": "Hydronet", "SKN": 353.0, "total_rf_mm": 53.848}, "type": "Feature"}, {"geometry": {"coordinates": [-156.017, 20.791999999999998], "type": "Point"}, "properties": {"Datastream": "ncei", "Name": "HANA AIRPORT 355", "Network": "ASOS_AWOS", "SKN": 355.0, "total_rf_mm": 61.6}, "type": "Feature"}, {"geometry": {"coordinates": [-155.453056, 19.334722], "type": "Point"}, "properties": {"Datastream": "hads", "Name": "Kapapala Ranch", "Network": "RAWS", "SKN": 36.3, "total_rf_mm": 52.831999999999894}, "type": "Feature"}, {"geometry": {"coordinates": [-156.6592, 20.8889], "type": "Point"}, "properties": {"Datastream": "nws", "Name": "Lahainaluna", "Network": "Hydronet", "SKN": 361.1, "total_rf_mm": 7.3660000000000005}, "type": "Feature"}, {"geometry": {"coordinates": [-155.1075, 19.29277778], "type": "Point"}, "properties": {"Datastream": "hads", "Name": "Kaelakomo", "Network": "RAWS", "SKN": 38.9, "total_rf_mm": 75.184}, "type": "Feature"}, {"geometry": {"coordinates": [-156.6008333, 20.89083333], "type": "Point"}, "properties": {"Datastream": "hads", "Name": "Puu Kukui", "Network": "USGS", "SKN": 380.0, "total_rf_mm": 442.468}, "type": "Feature"}, {"geometry": {"coordinates": [-156.5123, 20.8832], "type": "Point"}, "properties": {"Datastream": "hads", "Name": "Wailuku AHOS", "Network": "Hydronet", "SKN": 386.6, "total_rf_mm": 6.85799999999972}, "type": "Feature"}, {"geometry": {"coordinates": [-155.5763, 19.5362], "type": "Point"}, "properties": {"Datastream": "nws", "Name": "Mauna Loa Observatory", "Network": "ESRL/GMD", "SKN": 39.0, "total_rf_mm": 5.8420000000000005}, "type": "Feature"}, {"geometry": {"coordinates": [-155.576, 19.5354], "type": "Point"}, "properties": {"Datastream": "ncei", "Name": "MAUNA LOA 5 NNE", "Network": "USCRN", "SKN": 39.2, "total_rf_mm": 61.2}, "type": "Feature"}, {"geometry": {"coordinates": [-156.5135, 20.8347], "type": "Point"}, "properties": {"Datastream": "hads", "Name": "Waikapu C.C.", "Network": "Hydronet", "SKN": 390.4, "total_rf_mm": 4.31799999999998}, "type": "Feature"}, {"geometry": {"coordinates": [-156.41, 20.8887], "type": "Point"}, "properties": {"Datastream": "nws", "Name": "KAHULUI AIRPORT", "Network": "ASOS_AWOS", "SKN": 398.0, "total_rf_mm": 7.62}, "type": "Feature"}, {"geometry": {"coordinates": [-155.6354, 19.0424], "type": "Point"}, "properties": {"Datastream": "ncei", "Name": "NAALEHU 4.6 WSW", "Network": "CoCoRaHS", "SKN": 4.12, "total_rf_mm": 10.4}, "type": "Feature"}, {"geometry": {"coordinates": [-156.3304, 20.8358], "type": "Point"}, "properties": {"Datastream": "hads", "Name": "Pukalani", "Network": "Hydronet", "SKN": 426.6, "total_rf_mm": 73.66}, "type": "Feature"}, {"geometry": {"coordinates": [-155.9075, 19.42194444], "type": "Point"}, "properties": {"Datastream": "hads", "Name": "Puho CS", "Network": "RAWS", "SKN": 43.3, "total_rf_mm": 39.62400000000021}, "type": "Feature"}, {"geometry": {"coordinates": [-156.2121892, 20.89012208], "type": "Point"}, "properties": {"Datastream": "ncei", "Name": "KAILUA 446", "Network": "COOP", "SKN": 446.0, "total_rf_mm": 44.3}, "type": "Feature"}, {"geometry": {"coordinates": [-156.6753, 20.9625], "type": "Point"}, "properties": {"Datastream": "ncei", "Name": "KAPALUA W.MAUI AIRPORT", "Network": "ASOS_AWOS", "SKN": 462.4, "total_rf_mm": 26.5}, "type": "Feature"}, {"geometry": {"coordinates": [-156.6562, 20.9553], "type": "Point"}, "properties": {"Datastream": "nws", "Name": "Mahinahina Camp", "Network": "Hydronet", "SKN": 465.1, "total_rf_mm": 56.896}, "type": "Feature"}, {"geometry": {"coordinates": [-155.3627778, 19.47555556], "type": "Point"}, "properties": {"Datastream": "hads", "Name": "Keamoku Lava Flow ", "Network": "RAWS", "SKN": 47.0, "total_rf_mm": 137.922}, "type": "Feature"}, {"geometry": {"coordinates": [-155.29222219999997, 19.3175], "type": "Point"}, "properties": {"Datastream": "hads", "Name": "Pali 2", "Network": "RAWS", "SKN": 48.0, "total_rf_mm": 70.612}, "type": "Feature"}, {"geometry": {"coordinates": [-156.5342, 20.9539], "type": "Point"}, "properties": {"Datastream": "ncei", "Name": "KAHAKULOA MAUKA 482", "Network": "COOP", "SKN": 482.4, "total_rf_mm": 17.7}, "type": "Feature"}, {"geometry": {"coordinates": [-156.5342, 20.9539], "type": "Point"}, "properties": {"Datastream": "hads", "Name": "Kahakuloa", "Network": "Hydronet", "SKN": 482.5, "total_rf_mm": 17.017999999999798}, "type": "Feature"}, {"geometry": {"coordinates": [-156.3071849, 20.92011989], "type": "Point"}, "properties": {"Datastream": "ncei", "Name": "HAIKU", "Network": "CoCoRaHS", "SKN": 486.7, "total_rf_mm": 59.3}, "type": "Feature"}, {"geometry": {"coordinates": [-156.3224, 20.929000000000002], "type": "Point"}, "properties": {"Datastream": "hads", "Name": "Haiku", "Network": "Hydronet", "SKN": 489.0, "total_rf_mm": 42.16400000000021}, "type": "Feature"}, {"geometry": {"coordinates": [-156.5711111, 20.58027778], "type": "Point"}, "properties": {"Datastream": "hads", "Name": "Hakioawa", "Network": "RAWS", "SKN": 499.13, "total_rf_mm": 19.304000000000002}, "type": "Feature"}, {"geometry": {"coordinates": [-156.6816667, 20.50888889], "type": "Point"}, "properties": {"Datastream": "nws", "Name": "Honokanaia", "Network": "RAWS", "SKN": 499.8, "total_rf_mm": 0.0}, "type": "Feature"}, {"geometry": {"coordinates": [-156.5658333, 20.52222222], "type": "Point"}, "properties": {"Datastream": "hads", "Name": "Kaneloa", "Network": "RAWS", "SKN": 499.9, "total_rf_mm": 10.16}, "type": "Feature"}, {"geometry": {"coordinates": [-157.0924625, 21.15514996], "type": "Point"}, "properties": {"Datastream": "nws", "Name": "MOLOKAI AP 524", "Network": "ASOS_AWOS", "SKN": 524.0, "total_rf_mm": 21.844}, "type": "Feature"}, {"geometry": {"coordinates": [-157.0216311, 21.08876308], "type": "Point"}, "properties": {"Datastream": "ncei", "Name": "KAUNAKAKAI 536", "Network": "COOP", "SKN": 536.0, "total_rf_mm": 16.6}, "type": "Feature"}, {"geometry": {"coordinates": [-157.0174, 21.0946], "type": "Point"}, "properties": {"Datastream": "hads", "Name": "Kaunakakai Mau", "Network": "Hydronet", "SKN": 536.5, "total_rf_mm": 44.45}, "type": "Feature"}, {"geometry": {"coordinates": [-156.963, 21.068], "type": "Point"}, "properties": {"Datastream": "ncei", "Name": "KAUNAKAKAI 3.5 ESE", "Network": "CoCoRaHS", "SKN": 536.6, "total_rf_mm": 1.4}, "type": "Feature"}, {"geometry": {"coordinates": [-156.9475, 21.115], "type": "Point"}, "properties": {"Datastream": "hads", "Name": "Molokai 1", "Network": "RAWS", "SKN": 538.0, "total_rf_mm": 43.434}, "type": "Feature"}, {"geometry": {"coordinates": [-155.1707, 19.5076], "type": "Point"}, "properties": {"Datastream": "nws", "Name": "Glenwood", "Network": "Hydronet", "SKN": 54.2, "total_rf_mm": 490.728}, "type": "Feature"}, {"geometry": {"coordinates": [-155.7022222, 19.77166667], "type": "Point"}, "properties": {"Datastream": "hads", "Name": "Puu Alii West", "Network": "RAWS", "SKN": 541.2, "total_rf_mm": 118.61799999999901}, "type": "Feature"}, {"geometry": {"coordinates": [-156.871, 21.052], "type": "Point"}, "properties": {"Datastream": "nws", "Name": "Kamalo", "Network": "Hydronet", "SKN": 542.11, "total_rf_mm": 15.24}, "type": "Feature"}, {"geometry": {"coordinates": [-155.2417, 19.4338], "type": "Point"}, "properties": {"Datastream": "ncei", "Name": "VOLCANO 4.4 S", "Network": "CoCoRaHS", "SKN": 55.3, "total_rf_mm": 3.0}, "type": "Feature"}, {"geometry": {"coordinates": [-157.2319, 21.1804], "type": "Point"}, "properties": {"Datastream": "ncei", "Name": "MAUNALOA 3.2 NNW", "Network": "CoCoRaHS", "SKN": 550.3, "total_rf_mm": 5.9}, "type": "Feature"}, {"geometry": {"coordinates": [-156.9661111, 21.20333333], "type": "Point"}, "properties": {"Datastream": "hads", "Name": "Makapulapai", "Network": "RAWS", "SKN": 553.0, "total_rf_mm": 7.365999999999981}, "type": "Feature"}, {"geometry": {"coordinates": [-155.6632, 19.0732], "type": "Point"}, "properties": {"Datastream": "ncei", "Name": "NAALEHU 5.7 W", "Network": "CoCoRaHS", "SKN": 6.2, "total_rf_mm": 44.3}, "type": "Feature"}, {"geometry": {"coordinates": [-156.02027780000003, 19.67277778], "type": "Point"}, "properties": {"Datastream": "hads", "Name": "Kaloko-Honokohau", "Network": "RAWS", "SKN": 63.0, "total_rf_mm": 63.246}, "type": "Feature"}, {"geometry": {"coordinates": [-154.9165, 19.5043], "type": "Point"}, "properties": {"Datastream": "ncei", "Name": "PAHOA 2.1 E", "Network": "CoCoRaHS", "SKN": 65.4, "total_rf_mm": 49.8}, "type": "Feature"}, {"geometry": {"coordinates": [-154.92700000000002, 19.4654], "type": "Point"}, "properties": {"Datastream": "ncei", "Name": "PAHOA 2.7 SSE", "Network": "CoCoRaHS", "SKN": 67.7, "total_rf_mm": 138.0}, "type": "Feature"}, {"geometry": {"coordinates": [-156.9182, 20.8263], "type": "Point"}, "properties": {"Datastream": "nws", "Name": "Lanai City", "Network": "Hydronet", "SKN": 672.1, "total_rf_mm": 50.292}, "type": "Feature"}, {"geometry": {"coordinates": [-157.0063889, 20.87333333], "type": "Point"}, "properties": {"Datastream": "hads", "Name": "LANAI 1", "Network": "RAWS", "SKN": 679.0, "total_rf_mm": 39.37}, "type": "Feature"}, {"geometry": {"coordinates": [-156.04889, 19.73556], "type": "Point"}, "properties": {"Datastream": "nws", "Name": "KAILUA KONA KE AHOLE AIRPORT", "Network": "ASOS_AWOS", "SKN": 68.21, "total_rf_mm": 39.878}, "type": "Feature"}, {"geometry": {"coordinates": [-155.9699, 19.6799], "type": "Point"}, "properties": {"Datastream": "ncei", "Name": "HOLUALOA 4.0 NW", "Network": "CoCoRaHS", "SKN": 68.22, "total_rf_mm": 3.9}, "type": "Feature"}, {"geometry": {"coordinates": [-155.9859, 19.7189], "type": "Point"}, "properties": {"Datastream": "ncei", "Name": "KALAOA 2.2 ESE", "Network": "CoCoRaHS", "SKN": 69.26, "total_rf_mm": 35.9}, "type": "Feature"}, {"geometry": {"coordinates": [-155.9488, 19.6332], "type": "Point"}, "properties": {"Datastream": "hads", "Name": "Waiaha Stream", "Network": "Hydronet", "SKN": 70.16, "total_rf_mm": 188.722}, "type": "Feature"}, {"geometry": {"coordinates": [-157.999529, 21.313926000000002], "type": "Point"}, "properties": {"Datastream": "ncei", "Name": "HONOLULU OBSERV 702.2", "Network": "COOP", "SKN": 702.2, "total_rf_mm": 6.8}, "type": "Feature"}, {"geometry": {"coordinates": [-158.06667, 21.316670000000002], "type": "Point"}, "properties": {"Datastream": "nws", "Name": "Kapolei-Kalaeloa AP", "Network": "ASOS_AWOS", "SKN": 702.7, "total_rf_mm": 11.937999999999999}, "type": "Feature"}, {"geometry": {"coordinates": [-157.90892240000002, 21.32183585], "type": "Point"}, "properties": {"Datastream": "nws", "Name": "HONOLULU INTL AP 703", "Network": "ASOS_AWOS", "SKN": 703.0, "total_rf_mm": 4.572}, "type": "Feature"}, {"geometry": {"coordinates": [-157.8627, 21.3034], "type": "Point"}, "properties": {"Datastream": "nws", "Name": "Aloha Tower", "Network": "Hydronet", "SKN": 705.12, "total_rf_mm": 8.128}, "type": "Feature"}, {"geometry": {"coordinates": [-157.8293, 21.3004], "type": "Point"}, "properties": {"Datastream": "ncei", "Name": "HONOLULU 2.0 SW", "Network": "CoCoRaHS", "SKN": 707.5, "total_rf_mm": 31.3}, "type": "Feature"}, {"geometry": {"coordinates": [-157.8147571, 21.31044568], "type": "Point"}, "properties": {"Datastream": "ncei", "Name": "MANOA 712.1", "Network": "COOP", "SKN": 712.1, "total_rf_mm": 56.3}, "type": "Feature"}, {"geometry": {"coordinates": [-157.8167017, 21.29933514], "type": "Point"}, "properties": {"Datastream": "ncei", "Name": "UNIV OF HAWAII 713", "Network": "COOP", "SKN": 713.0, "total_rf_mm": 12.0}, "type": "Feature"}, {"geometry": {"coordinates": [-157.8180917, 21.27183682], "type": "Point"}, "properties": {"Datastream": "ncei", "Name": "WAIKIKI 717.2", "Network": "COOP", "SKN": 717.2, "total_rf_mm": 28.8}, "type": "Feature"}, {"geometry": {"coordinates": [-157.7816, 21.285], "type": "Point"}, "properties": {"Datastream": "ncei", "Name": "HONOLULU 2.7 SSE", "Network": "CoCoRaHS", "SKN": 720.6, "total_rf_mm": 37.3}, "type": "Feature"}, {"geometry": {"coordinates": [-157.7945, 21.2996], "type": "Point"}, "properties": {"Datastream": "hads", "Name": "Palolo Fire Stn", "Network": "Hydronet", "SKN": 721.4, "total_rf_mm": 46.2280000000002}, "type": "Feature"}, {"geometry": {"coordinates": [-157.7332, 21.2896], "type": "Point"}, "properties": {"Datastream": "hads", "Name": "Niu Valley", "Network": "Hydronet", "SKN": 723.8, "total_rf_mm": 55.6260000000015}, "type": "Feature"}, {"geometry": {"coordinates": [-157.66443999999998, 21.29889], "type": "Point"}, "properties": {"Datastream": "ncei", "Name": "HAWAII KAI GC 724.19", "Network": "COOP", "SKN": 724.19, "total_rf_mm": 10.4}, "type": "Feature"}, {"geometry": {"coordinates": [-157.6793, 21.3084], "type": "Point"}, "properties": {"Datastream": "hads", "Name": "Kamehame", "Network": "Hydronet", "SKN": 724.21, "total_rf_mm": 21.3359999999996}, "type": "Feature"}, {"geometry": {"coordinates": [-157.6644, 21.2992], "type": "Point"}, "properties": {"Datastream": "nws", "Name": "Hawaii Kai G.C.", "Network": "Hydronet", "SKN": 724.22, "total_rf_mm": 30.988000000000003}, "type": "Feature"}, {"geometry": {"coordinates": [-158.100865, 21.39684348], "type": "Point"}, "properties": {"Datastream": "hads", "Name": "Palehua", "Network": "RAWS", "SKN": 728.2, "total_rf_mm": 10.922}, "type": "Feature"}, {"geometry": {"coordinates": [-158.0358, 21.386999999999997], "type": "Point"}, "properties": {"Datastream": "nws", "Name": "Kunia Substation", "Network": "Hydronet", "SKN": 740.5, "total_rf_mm": 50.54600000000001}, "type": "Feature"}, {"geometry": {"coordinates": [-158.0205556, 21.35666667], "type": "Point"}, "properties": {"Datastream": "hads", "Name": "Honouliuli PHB", "Network": "RAWS", "SKN": 742.4, "total_rf_mm": 15.7479999999998}, "type": "Feature"}, {"geometry": {"coordinates": [-155.70777780000003, 19.66694444], "type": "Point"}, "properties": {"Datastream": "hads", "Name": "PTA Kipuka Alala ", "Network": "RAWS", "SKN": 75.1, "total_rf_mm": 36.321999999999996}, "type": "Feature"}, {"geometry": {"coordinates": [-157.9811111, 21.38694444], "type": "Point"}, "properties": {"Datastream": "hads", "Name": "Waiwa PHB", "Network": "RAWS", "SKN": 752.6, "total_rf_mm": 104.39399999999999}, "type": "Feature"}, {"geometry": {"coordinates": [-157.91031, 21.39488776], "type": "Point"}, "properties": {"Datastream": "ncei", "Name": "AIEA HEIGHTS 764.6", "Network": "COOP", "SKN": 764.6, "total_rf_mm": 67.5}, "type": "Feature"}, {"geometry": {"coordinates": [-157.9186, 21.393], "type": "Point"}, "properties": {"Datastream": "ncei", "Name": "AIEA 0.7 ENE", "Network": "CoCoRaHS", "SKN": 764.7, "total_rf_mm": 52.5}, "type": "Feature"}, {"geometry": {"coordinates": [-157.87083330000002, 21.40777778], "type": "Point"}, "properties": {"Datastream": "hads", "Name": "N. Halawa Valley", "Network": "USGS", "SKN": 771.11, "total_rf_mm": 138.17600000000002}, "type": "Feature"}, {"geometry": {"coordinates": [-157.85416669999998, 21.39972222], "type": "Point"}, "properties": {"Datastream": "nws", "Name": "Moanalua", "Network": "USGS", "SKN": 772.3, "total_rf_mm": 28.448}, "type": "Feature"}, {"geometry": {"coordinates": [-157.8801, 21.3736], "type": "Point"}, "properties": {"Datastream": "hads", "Name": "Moanalua Stream", "Network": "Hydronet", "SKN": 772.5, "total_rf_mm": 58.9280000000006}, "type": "Feature"}, {"geometry": {"coordinates": [-157.8098, 21.3873], "type": "Point"}, "properties": {"Datastream": "nws", "Name": "Luluku", "Network": "Hydronet", "SKN": 781.12, "total_rf_mm": 111.76}, "type": "Feature"}, {"geometry": {"coordinates": [-157.8098, 21.3873], "type": "Point"}, "properties": {"Datastream": "ncei", "Name": "LULUKU 781.7", "Network": "COOP", "SKN": 781.7, "total_rf_mm": 15.9}, "type": "Feature"}, {"geometry": {"coordinates": [-157.8183, 21.3502], "type": "Point"}, "properties": {"Datastream": "hads", "Name": "Nuuanu Upper", "Network": "Hydronet", "SKN": 782.3, "total_rf_mm": 125.984}, "type": "Feature"}, {"geometry": {"coordinates": [-157.8024, 21.333000000000002], "type": "Point"}, "properties": {"Datastream": "nws", "Name": "Manoa Lyon Arbo", "Network": "Hydronet", "SKN": 785.4, "total_rf_mm": 273.812}, "type": "Feature"}, {"geometry": {"coordinates": [-157.7668, 21.351], "type": "Point"}, "properties": {"Datastream": "ncei", "Name": "MAUNAWILI 787.1", "Network": "COOP", "SKN": 787.1, "total_rf_mm": 36.0}, "type": "Feature"}, {"geometry": {"coordinates": [-157.7668, 21.351], "type": "Point"}, "properties": {"Datastream": "hads", "Name": "Maunawili", "Network": "Hydronet", "SKN": 787.2, "total_rf_mm": 134.619999999997}, "type": "Feature"}, {"geometry": {"coordinates": [-157.7785, 21.3666], "type": "Point"}, "properties": {"Datastream": "ncei", "Name": "SAINT STEPHENS SEM 788", "Network": "COOP", "SKN": 788.0, "total_rf_mm": 21.1}, "type": "Feature"}, {"geometry": {"coordinates": [-157.7785, 21.3666], "type": "Point"}, "properties": {"Datastream": "hads", "Name": "St Stephens Seminary", "Network": "Hydronet", "SKN": 788.2, "total_rf_mm": 130.556}, "type": "Feature"}, {"geometry": {"coordinates": [-157.7507, 21.3776], "type": "Point"}, "properties": {"Datastream": "hads", "Name": "Olomana Fire Stn", "Network": "Hydronet", "SKN": 790.11, "total_rf_mm": 55.88000000000049}, "type": "Feature"}, {"geometry": {"coordinates": [-157.725, 21.3727], "type": "Point"}, "properties": {"Datastream": "ncei", "Name": "KAILUA 2.2 SSE", "Network": "CoCoRaHS", "SKN": 793.1, "total_rf_mm": 32.3}, "type": "Feature"}, {"geometry": {"coordinates": [-157.7105906, 21.33516407], "type": "Point"}, "properties": {"Datastream": "ncei", "Name": "WAIMANALO EXP F 795.1", "Network": "COOP", "SKN": 795.1, "total_rf_mm": 34.4}, "type": "Feature"}, {"geometry": {"coordinates": [-157.7116, 21.3356], "type": "Point"}, "properties": {"Datastream": "hads", "Name": "Waimanalo Nonokio", "Network": "Hydronet", "SKN": 795.3, "total_rf_mm": 33.0199999999991}, "type": "Feature"}, {"geometry": {"coordinates": [-158.1072222, 21.48], "type": "Point"}, "properties": {"Datastream": "nws", "Name": "Schofield South Range", "Network": "RAWS", "SKN": 799.0, "total_rf_mm": 0.0}, "type": "Feature"}, {"geometry": {"coordinates": [-158.18, 21.4566], "type": "Point"}, "properties": {"Datastream": "nws", "Name": "Waianae Kawiwi", "Network": "Hydronet", "SKN": 801.1, "total_rf_mm": 2.7939999999999996}, "type": "Feature"}, {"geometry": {"coordinates": [-158.1789178, 21.45183461], "type": "Point"}, "properties": {"Datastream": "hads", "Name": "Waianae Valley", "Network": "RAWS", "SKN": 803.2, "total_rf_mm": 28.9559999999999}, "type": "Feature"}, {"geometry": {"coordinates": [-158.1352, 21.4211], "type": "Point"}, "properties": {"Datastream": "nws", "Name": "Lualualei", "Network": "Hydronet", "SKN": 804.0, "total_rf_mm": 6.858}, "type": "Feature"}, {"geometry": {"coordinates": [-158.02806, 21.48722], "type": "Point"}, "properties": {"Datastream": "hads", "Name": "Wheeler AAF", "Network": "ASOS_AWOS", "SKN": 810.1, "total_rf_mm": 141.986}, "type": "Feature"}, {"geometry": {"coordinates": [-157.9991, 21.4638], "type": "Point"}, "properties": {"Datastream": "nws", "Name": "Mililani", "Network": "Hydronet", "SKN": 820.6, "total_rf_mm": 132.08}, "type": "Feature"}, {"geometry": {"coordinates": [-158.0058, 21.4199], "type": "Point"}, "properties": {"Datastream": "nws", "Name": "Waipio Heights", "Network": "Hydronet", "SKN": 824.2, "total_rf_mm": 88.39200000000001}, "type": "Feature"}, {"geometry": {"coordinates": [-157.99333330000002, 21.49944444], "type": "Point"}, "properties": {"Datastream": "hads", "Name": "Schofield East", "Network": "RAWS", "SKN": 828.0, "total_rf_mm": 132.08}, "type": "Feature"}, {"geometry": {"coordinates": [-155.2975, 19.68805556], "type": "Point"}, "properties": {"Datastream": "hads", "Name": "Quarry", "Network": "USGS", "SKN": 83.0, "total_rf_mm": 529.844}, "type": "Feature"}, {"geometry": {"coordinates": [-157.9669, 21.4441], "type": "Point"}, "properties": {"Datastream": "nws", "Name": "Waiawa CF", "Network": "Hydronet", "SKN": 834.13, "total_rf_mm": 123.95200000000001}, "type": "Feature"}, {"geometry": {"coordinates": [-157.9452, 21.4298], "type": "Point"}, "properties": {"Datastream": "nws", "Name": "Palisades Res", "Network": "Hydronet", "SKN": 835.2, "total_rf_mm": 61.722}, "type": "Feature"}, {"geometry": {"coordinates": [-157.846, 21.4819], "type": "Point"}, "properties": {"Datastream": "hads", "Name": "WAIAHOLE STREAM NEAR KAHALUU 2N", "Network": "UNKNOWN", "SKN": 837.01, "total_rf_mm": 94.9960000000001}, "type": "Feature"}, {"geometry": {"coordinates": [-157.84888999999998, 21.45167], "type": "Point"}, "properties": {"Datastream": "ncei", "Name": "WAIHEE 837.5", "Network": "COOP", "SKN": 837.5, "total_rf_mm": 39.0}, "type": "Feature"}, {"geometry": {"coordinates": [-157.8373, 21.432], "type": "Point"}, "properties": {"Datastream": "ncei", "Name": "AHUIMANU LOOP 839.12", "Network": "COOP", "SKN": 839.12, "total_rf_mm": 25.9}, "type": "Feature"}, {"geometry": {"coordinates": [-157.8373, 21.432], "type": "Point"}, "properties": {"Datastream": "hads", "Name": "Ahuimanu Loop", "Network": "Hydronet", "SKN": 839.15, "total_rf_mm": 125.73}, "type": "Feature"}, {"geometry": {"coordinates": [-157.8584, 21.4464], "type": "Point"}, "properties": {"Datastream": "hads", "Name": "Waihee Pump", "Network": "Hydronet", "SKN": 839.8, "total_rf_mm": 133.604000000005}, "type": "Feature"}, {"geometry": {"coordinates": [-157.7730876, 21.44404851], "type": "Point"}, "properties": {"Datastream": "ncei", "Name": "KANEOHE MCAS 840", "Network": "ASOS_AWOS", "SKN": 840.0, "total_rf_mm": 0.1}, "type": "Feature"}, {"geometry": {"coordinates": [-157.78697659999997, 21.43321608], "type": "Point"}, "properties": {"Datastream": "ncei", "Name": "COCONUT ISLAND 840.1", "Network": "COOP", "SKN": 840.1, "total_rf_mm": 10.6}, "type": "Feature"}, {"geometry": {"coordinates": [-158.26, 21.57027778], "type": "Point"}, "properties": {"Datastream": "hads", "Name": "Kuaokala", "Network": "RAWS", "SKN": 841.2, "total_rf_mm": 20.066}, "type": "Feature"}, {"geometry": {"coordinates": [-158.1891667, 21.50444444], "type": "Point"}, "properties": {"Datastream": "hads", "Name": "Makaha", "Network": "USGS", "SKN": 842.1, "total_rf_mm": 103.632}, "type": "Feature"}, {"geometry": {"coordinates": [-158.2041667, 21.52611111], "type": "Point"}, "properties": {"Datastream": "hads", "Name": "Makua Valley", "Network": "RAWS", "SKN": 842.7, "total_rf_mm": 1.524}, "type": "Feature"}, {"geometry": {"coordinates": [-158.2261111, 21.52861111], "type": "Point"}, "properties": {"Datastream": "hads", "Name": "Makua Range", "Network": "RAWS", "SKN": 842.8, "total_rf_mm": 3.3020000000000205}, "type": "Feature"}, {"geometry": {"coordinates": [-158.1988889, 21.54277778], "type": "Point"}, "properties": {"Datastream": "hads", "Name": "Makua Ridge", "Network": "RAWS", "SKN": 842.9, "total_rf_mm": 24.1299999999999}, "type": "Feature"}, {"geometry": {"coordinates": [-158.1986111, 21.57194444], "type": "Point"}, "properties": {"Datastream": "hads", "Name": "Dillingham", "Network": "RAWS", "SKN": 843.7, "total_rf_mm": 1.524}, "type": "Feature"}, {"geometry": {"coordinates": [-155.1277, 19.6586], "type": "Point"}, "properties": {"Datastream": "nws", "Name": "Waiakea Uka", "Network": "Hydronet", "SKN": 85.2, "total_rf_mm": 415.29}, "type": "Feature"}, {"geometry": {"coordinates": [-158.0893, 21.5382], "type": "Point"}, "properties": {"Datastream": "nws", "Name": "Poamoho Exp Farm", "Network": "Hydronet", "SKN": 855.3, "total_rf_mm": 92.20200000000001}, "type": "Feature"}, {"geometry": {"coordinates": [-158.08194440000003, 21.495], "type": "Point"}, "properties": {"Datastream": "hads", "Name": "Schofield Barracks", "Network": "RAWS", "SKN": 858.0, "total_rf_mm": 57.403999999999996}, "type": "Feature"}, {"geometry": {"coordinates": [-158.01305559999997, 21.58722222], "type": "Point"}, "properties": {"Datastream": "hads", "Name": "Kawailoa Trainina area", "Network": "RAWS", "SKN": 869.0, "total_rf_mm": 93.72600000000021}, "type": "Feature"}, {"geometry": {"coordinates": [-155.0558, 19.7222], "type": "Point"}, "properties": {"Datastream": "nws", "Name": "HILO AIRPORT 87", "Network": "ASOS_AWOS", "SKN": 87.0, "total_rf_mm": 279.4}, "type": "Feature"}, {"geometry": {"coordinates": [-155.0827, 19.645], "type": "Point"}, "properties": {"Datastream": "ncei", "Name": "HILO 5 S", "Network": "USCRN", "SKN": 87.5, "total_rf_mm": 335.0}, "type": "Feature"}, {"geometry": {"coordinates": [-155.0925, 19.692], "type": "Point"}, "properties": {"Datastream": "ncei", "Name": "HILO 0.4 SW", "Network": "CoCoRaHS", "SKN": 87.8, "total_rf_mm": 7.6}, "type": "Feature"}, {"geometry": {"coordinates": [-155.0805636, 19.644743], "type": "Point"}, "properties": {"Datastream": "nws", "Name": "Waiakea Exp Farm", "Network": "State", "SKN": 88.8, "total_rf_mm": 386.842}, "type": "Feature"}, {"geometry": {"coordinates": [-157.9375, 21.5375], "type": "Point"}, "properties": {"Datastream": "hads", "Name": "Poamoho", "Network": "USGS", "SKN": 883.12, "total_rf_mm": 197.357999999999}, "type": "Feature"}, {"geometry": {"coordinates": [-157.9208333, 21.55972222], "type": "Point"}, "properties": {"Datastream": "nws", "Name": "Punaluu", "Network": "USGS", "SKN": 884.4, "total_rf_mm": 27.94}, "type": "Feature"}, {"geometry": {"coordinates": [-157.85028, 21.53], "type": "Point"}, "properties": {"Datastream": "ncei", "Name": "KUALOA RANCH 885.6", "Network": "COOP", "SKN": 885.6, "total_rf_mm": 21.0}, "type": "Feature"}, {"geometry": {"coordinates": [-157.90027780000003, 21.49944444], "type": "Point"}, "properties": {"Datastream": "hads", "Name": "Oahu Forest NWR", "Network": "RAWS", "SKN": 885.7, "total_rf_mm": 68.83399999999989}, "type": "Feature"}, {"geometry": {"coordinates": [-157.9041667, 21.54361111], "type": "Point"}, "properties": {"Datastream": "hads", "Name": "Kahana", "Network": "USGS", "SKN": 886.4, "total_rf_mm": 115.824}, "type": "Feature"}, {"geometry": {"coordinates": [-157.8575, 21.5037], "type": "Point"}, "properties": {"Datastream": "hads", "Name": "Hakipuu Mauka", "Network": "Hydronet", "SKN": 886.8, "total_rf_mm": 66.03999999999989}, "type": "Feature"}, {"geometry": {"coordinates": [-157.8374, 21.5213], "type": "Point"}, "properties": {"Datastream": "ncei", "Name": "KUALOA RANCH HEADQUATERTERS 886.9", "Network": "COOP", "SKN": 886.9, "total_rf_mm": 14.3}, "type": "Feature"}, {"geometry": {"coordinates": [-155.1395, 19.7098], "type": "Point"}, "properties": {"Datastream": "nws", "Name": "Piihonua KPUA", "Network": "Hydronet", "SKN": 89.11, "total_rf_mm": 465.32800000000003}, "type": "Feature"}, {"geometry": {"coordinates": [-158.058759, 21.638859], "type": "Point"}, "properties": {"Datastream": "ncei", "Name": "WAIMEA ARBORETUM 892.2", "Network": "COOP", "SKN": 892.2, "total_rf_mm": 0.3}, "type": "Feature"}, {"geometry": {"coordinates": [-158.0388889, 21.62555556], "type": "Point"}, "properties": {"Datastream": "nws", "Name": "Kamananui", "Network": "USGS", "SKN": 897.11, "total_rf_mm": 35.56}, "type": "Feature"}, {"geometry": {"coordinates": [-158.0388889, 21.60222222], "type": "Point"}, "properties": {"Datastream": "nws", "Name": "Pupukea", "Network": "USGS", "SKN": 897.9, "total_rf_mm": 41.656000000000006}, "type": "Feature"}, {"geometry": {"coordinates": [-155.614444, 19.256389000000002], "type": "Point"}, "properties": {"Datastream": "hads", "Name": "Nene Cabin", "Network": "RAWS", "SKN": 9.2, "total_rf_mm": 104.648}, "type": "Feature"}, {"geometry": {"coordinates": [-157.9287, 21.65], "type": "Point"}, "properties": {"Datastream": "ncei", "Name": "LAIE 0.2 WNW", "Network": "CoCoRaHS", "SKN": 903.2, "total_rf_mm": 11.9}, "type": "Feature"}, {"geometry": {"coordinates": [-157.9100271, 21.60987636], "type": "Point"}, "properties": {"Datastream": "ncei", "Name": "KAPAKA FARM 904.1", "Network": "COOP", "SKN": 904.1, "total_rf_mm": 33.7}, "type": "Feature"}, {"geometry": {"coordinates": [-157.8915, 21.5843], "type": "Point"}, "properties": {"Datastream": "ncei", "Name": "PUNALULU PUMP 905.2", "Network": "COOP", "SKN": 905.2, "total_rf_mm": 23.6}, "type": "Feature"}, {"geometry": {"coordinates": [-157.8915, 21.5843], "type": "Point"}, "properties": {"Datastream": "hads", "Name": "Punaluu Pump", "Network": "Hydronet", "SKN": 905.22, "total_rf_mm": 67.81799999999929}, "type": "Feature"}, {"geometry": {"coordinates": [-157.98944440000002, 21.67916667], "type": "Point"}, "properties": {"Datastream": "hads", "Name": "Kahuku Training Area", "Network": "RAWS", "SKN": 909.0, "total_rf_mm": 37.084}, "type": "Feature"}, {"geometry": {"coordinates": [-155.1101, 19.5487], "type": "Point"}, "properties": {"Datastream": "ncei", "Name": "MOUNTAIN VIEW 91", "Network": "COOP", "SKN": 91.0, "total_rf_mm": 42.0}, "type": "Feature"}, {"geometry": {"coordinates": [-155.1101, 19.549], "type": "Point"}, "properties": {"Datastream": "nws", "Name": "Mountain View", "Network": "Hydronet", "SKN": 91.15, "total_rf_mm": 476.504}, "type": "Feature"}, {"geometry": {"coordinates": [-154.9729, 19.5413], "type": "Point"}, "properties": {"Datastream": "nws", "Name": "Pahoa Beacon", "Network": "Hydronet", "SKN": 91.9, "total_rf_mm": 350.774}, "type": "Feature"}, {"geometry": {"coordinates": [-157.96724709999998, 21.68348509], "type": "Point"}, "properties": {"Datastream": "ncei", "Name": "Pump 5", "Network": "COOP", "SKN": 911.0, "total_rf_mm": 1.2}, "type": "Feature"}, {"geometry": {"coordinates": [-157.9525, 21.68833333], "type": "Point"}, "properties": {"Datastream": "hads", "Name": "Kii", "Network": "RAWS", "SKN": 911.1, "total_rf_mm": 3.81}, "type": "Feature"}, {"geometry": {"coordinates": [-157.9811, 21.695], "type": "Point"}, "properties": {"Datastream": "hads", "Name": "KAUHUKU 912", "Network": "COOP", "SKN": 912.0, "total_rf_mm": 25.146}, "type": "Feature"}, {"geometry": {"coordinates": [-155.8986111, 19.82916667], "type": "Point"}, "properties": {"Datastream": "hads", "Name": "Kiholo", "Network": "USGS", "SKN": 92.5, "total_rf_mm": 28.701999999999998}, "type": "Feature"}, {"geometry": {"coordinates": [-159.6010997, 21.89381249], "type": "Point"}, "properties": {"Datastream": "hads", "Name": "Port Allen", "Network": "COOP", "SKN": 926.0, "total_rf_mm": 5.08}, "type": "Feature"}, {"geometry": {"coordinates": [-155.7697222, 19.83277778], "type": "Point"}, "properties": {"Datastream": "hads", "Name": "Puuanahulu", "Network": "RAWS", "SKN": 93.12, "total_rf_mm": 123.19}, "type": "Feature"}, {"geometry": {"coordinates": [-159.46220569999997, 21.90686471], "type": "Point"}, "properties": {"Datastream": "ncei", "Name": "KOLOA 936", "Network": "COOP", "SKN": 936.0, "total_rf_mm": 68.9}, "type": "Feature"}, {"geometry": {"coordinates": [-155.91805559999997, 19.80333333], "type": "Point"}, "properties": {"Datastream": "hads", "Name": "Kaupelehu Lava Flow", "Network": "RAWS", "SKN": 94.0, "total_rf_mm": 59.69}, "type": "Feature"}, {"geometry": {"coordinates": [-155.8422198, 19.77279268], "type": "Point"}, "properties": {"Datastream": "hads", "Name": "Puu Waawaa", "Network": "RAWS", "SKN": 94.5, "total_rf_mm": 63.246}, "type": "Feature"}, {"geometry": {"coordinates": [-159.4518, 21.8788], "type": "Point"}, "properties": {"Datastream": "ncei", "Name": "KOLOA 2.1 SSE", "Network": "CoCoRaHS", "SKN": 940.2, "total_rf_mm": 15.0}, "type": "Feature"}, {"geometry": {"coordinates": [-159.42220700000001, 21.90102957], "type": "Point"}, "properties": {"Datastream": "ncei", "Name": "MAHAULEPU 941.1", "Network": "COOP", "SKN": 941.1, "total_rf_mm": 59.6}, "type": "Feature"}, {"geometry": {"coordinates": [-159.6638889, 21.96638889], "type": "Point"}, "properties": {"Datastream": "hads", "Name": "Waimea Hts", "Network": "RAWS", "SKN": 946.0, "total_rf_mm": 27.432}, "type": "Feature"}, {"geometry": {"coordinates": [-155.7883, 19.9465], "type": "Point"}, "properties": {"Datastream": "ncei", "Name": "WAIKOLOA VILLAGE 2.7 ENE", "Network": "CoCoRaHS", "SKN": 95.11, "total_rf_mm": 25.2}, "type": "Feature"}, {"geometry": {"coordinates": [-155.7936111, 19.92416667], "type": "Point"}, "properties": {"Datastream": "hads", "Name": "Waikoloa", "Network": "RAWS", "SKN": 95.6, "total_rf_mm": 26.162}, "type": "Feature"}, {"geometry": {"coordinates": [-159.6272113, 21.91909048], "type": "Point"}, "properties": {"Datastream": "ncei", "Name": "MAKAWELI 965", "Network": "COOP", "SKN": 965.0, "total_rf_mm": 13.7}, "type": "Feature"}, {"geometry": {"coordinates": [-159.5867, 21.9364], "type": "Point"}, "properties": {"Datastream": "hads", "Name": "Hanapepe", "Network": "Hydronet", "SKN": 966.4, "total_rf_mm": 25.1459999999997}, "type": "Feature"}, {"geometry": {"coordinates": [-155.821111, 20.025], "type": "Point"}, "properties": {"Datastream": "hads", "Name": "Puhe CS", "Network": "RAWS", "SKN": 98.2, "total_rf_mm": 0.50800000000001}, "type": "Feature"}, {"geometry": {"coordinates": [-159.52700000000002, 21.9182], "type": "Point"}, "properties": {"Datastream": "nws", "Name": "Kalaheo", "Network": "Hydronet", "SKN": 986.2, "total_rf_mm": 47.244}, "type": "Feature"}, {"geometry": {"coordinates": [-155.7022222, 19.77166667], "type": "Point"}, "properties": {"Datastream": "hads", "Name": "PTA West ", "Network": "RAWS", "SKN": 99.0, "total_rf_mm": 75.438}, "type": "Feature"}, {"geometry": {"coordinates": [-159.4768, 21.9069], "type": "Point"}, "properties": {"Datastream": "hads", "Name": "Omao", "Network": "Hydronet", "SKN": 992.1, "total_rf_mm": 110.48999999999901}, "type": "Feature"}, {"geometry": {"coordinates": [-155.029, 19.5021], "type": "Point"}, "properties": {"Datastream": "ncei", "Name": "KURTISTOWN 6.6 SSE, HI US", "Network": "UNKNOWN", "SKN": 9999.1917, "total_rf_mm": 155.8}, "type": "Feature"}, {"geometry": {"coordinates": [-155.6371, 19.0421], "type": "Point"}, "properties": {"Datastream": "ncei", "Name": "NAALEHU 4.7 WSW, HI US", "Network": "UNKNOWN", "SKN": 9999.1919, "total_rf_mm": 23.6}, "type": "Feature"}, {"geometry": {"coordinates": [-155.7552, 19.0908], "type": "Point"}, "properties": {"Datastream": "ncei", "Name": "HAWAIIAN OCEAN VIEW 1.7 NNE, HI US", "Network": "UNKNOWN", "SKN": 9999.192, "total_rf_mm": 32.2}, "type": "Feature"}, {"geometry": {"coordinates": [-154.8988, 19.5473], "type": "Point"}, "properties": {"Datastream": "ncei", "Name": "PAHOA 4.7 NE, HI US", "Network": "UNKNOWN", "SKN": 9999.1922, "total_rf_mm": 103.8}, "type": "Feature"}, {"geometry": {"coordinates": [-157.8017, 21.4039], "type": "Point"}, "properties": {"Datastream": "ncei", "Name": "KANEOHE 0.8 SW, HI US", "Network": "UNKNOWN", "SKN": 9999.1938, "total_rf_mm": 54.7}, "type": "Feature"}, {"geometry": {"coordinates": [-159.365, 22.0593], "type": "Point"}, "properties": {"Datastream": "ncei", "Name": "KAPAA 2.7 SSW, HI US", "Network": "UNKNOWN", "SKN": 9999.1955, "total_rf_mm": 57.9}, "type": "Feature"}, {"geometry": {"coordinates": [-159.5492, 22.2103], "type": "Point"}, "properties": {"Datastream": "ncei", "Name": "HANALEI 3.0 W, HI US", "Network": "UNKNOWN", "SKN": 9999.1956, "total_rf_mm": 91.5}, "type": "Feature"}, {"geometry": {"coordinates": [-159.3767, 22.0721], "type": "Point"}, "properties": {"Datastream": "ncei", "Name": "KAPAA 2.3 SW, HI US", "Network": "UNKNOWN", "SKN": 9999.1958, "total_rf_mm": 52.7}, "type": "Feature"}, {"geometry": {"coordinates": [-155.1692, 19.5075], "type": "Point"}, "properties": {"Datastream": "ncei", "Name": "GLENWOOD 54.2, HI US", "Network": "UNKNOWN", "SKN": 9999.1993, "total_rf_mm": 27.3}, "type": "Feature"}, {"geometry": {"coordinates": [-156.3221, 20.9287], "type": "Point"}, "properties": {"Datastream": "ncei", "Name": "HAIKU 488.7, HI US", "Network": "UNKNOWN", "SKN": 9999.1997, "total_rf_mm": 12.6}, "type": "Feature"}, {"geometry": {"coordinates": [-157.8575, 21.503610000000002], "type": "Point"}, "properties": {"Datastream": "ncei", "Name": "HAKIPUU MAUKA 886.8, HI US", "Network": "UNKNOWN", "SKN": 9999.2, "total_rf_mm": 17.7}, "type": "Feature"}, {"geometry": {"coordinates": [-157.9298, 21.3287], "type": "Point"}, "properties": {"Datastream": "ncei", "Name": "HONOLULU FIRE STATION 703.1, HI US", "Network": "UNKNOWN", "SKN": 9999.2045, "total_rf_mm": 0.8}, "type": "Feature"}, {"geometry": {"coordinates": [-156.8709, 21.0521], "type": "Point"}, "properties": {"Datastream": "ncei", "Name": "KAMALO 542.10, HI US", "Network": "UNKNOWN", "SKN": 9999.2082, "total_rf_mm": 11.2}, "type": "Feature"}, {"geometry": {"coordinates": [-155.6669, 20.0319], "type": "Point"}, "properties": {"Datastream": "ncei", "Name": "KAMUELA UPPER 192.7, HI US", "Network": "UNKNOWN", "SKN": 9999.2086, "total_rf_mm": 39.8}, "type": "Feature"}, {"geometry": {"coordinates": [-159.38611, 22.102220000000003], "type": "Point"}, "properties": {"Datastream": "ncei", "Name": "KAPAHI 1094.2, HI US", "Network": "UNKNOWN", "SKN": 9999.2095, "total_rf_mm": 6.1}, "type": "Feature"}, {"geometry": {"coordinates": [-155.4513, 19.2754], "type": "Point"}, "properties": {"Datastream": "ncei", "Name": "KAPAPALA RANCH 36, HI US", "Network": "UNKNOWN", "SKN": 9999.2098, "total_rf_mm": 28.6}, "type": "Feature"}, {"geometry": {"coordinates": [-159.495, 22.198610000000002], "type": "Point"}, "properties": {"Datastream": "ncei", "Name": "HANALEI 1117.8, HI US", "Network": "UNKNOWN", "SKN": 9999.2104, "total_rf_mm": 5.6}, "type": "Feature"}, {"geometry": {"coordinates": [-157.86222, 21.51083], "type": "Point"}, "properties": {"Datastream": "ncei", "Name": "KUALOA RANCH HAKIPUU 886.11, HI US", "Network": "UNKNOWN", "SKN": 9999.2158, "total_rf_mm": 27.1}, "type": "Feature"}, {"geometry": {"coordinates": [-156.3212, 20.7584], "type": "Point"}, "properties": {"Datastream": "ncei", "Name": "KULA BRNCH STATION 324.5, HI US", "Network": "UNKNOWN", "SKN": 9999.2166, "total_rf_mm": 24.4}, "type": "Feature"}, {"geometry": {"coordinates": [-156.9202, 20.8291], "type": "Point"}, "properties": {"Datastream": "ncei", "Name": "LANAI CITY 672, HI US", "Network": "UNKNOWN", "SKN": 9999.2178, "total_rf_mm": 59.8}, "type": "Feature"}, {"geometry": {"coordinates": [-158.1351, 21.4212], "type": "Point"}, "properties": {"Datastream": "ncei", "Name": "LUALUALEI 804, HI US", "Network": "UNKNOWN", "SKN": 9999.2187, "total_rf_mm": 4.7}, "type": "Feature"}, {"geometry": {"coordinates": [-157.8025, 21.3331], "type": "Point"}, "properties": {"Datastream": "ncei", "Name": "MANOA LYON ARBO 785.2, HI US", "Network": "UNKNOWN", "SKN": 9999.2211, "total_rf_mm": 89.1}, "type": "Feature"}, {"geometry": {"coordinates": [-158.99889, 21.46444], "type": "Point"}, "properties": {"Datastream": "ncei", "Name": "MILILANI 820.6, HI US", "Network": "UNKNOWN", "SKN": 9999.2221, "total_rf_mm": 26.1}, "type": "Feature"}, {"geometry": {"coordinates": [-157.88, 21.37361], "type": "Point"}, "properties": {"Datastream": "ncei", "Name": "MOANALUA STRM 772.5, HI US", "Network": "UNKNOWN", "SKN": 9999.2226, "total_rf_mm": 2.2}, "type": "Feature"}, {"geometry": {"coordinates": [-157.735, 21.29028], "type": "Point"}, "properties": {"Datastream": "ncei", "Name": "NIU VALLEY 723.8, HI US", "Network": "UNKNOWN", "SKN": 9999.2238, "total_rf_mm": 28.9}, "type": "Feature"}, {"geometry": {"coordinates": [-157.82278, 21.34972], "type": "Point"}, "properties": {"Datastream": "ncei", "Name": "NUUANU UPPER 782.3, HI US", "Network": "UNKNOWN", "SKN": 9999.2244, "total_rf_mm": 7.8}, "type": "Feature"}, {"geometry": {"coordinates": [-157.75083, 21.3775], "type": "Point"}, "properties": {"Datastream": "ncei", "Name": "OLOMANA FIRE STATION 790, HI US", "Network": "UNKNOWN", "SKN": 9999.2247, "total_rf_mm": 17.3}, "type": "Feature"}, {"geometry": {"coordinates": [-159.47666999999998, 21.9075], "type": "Point"}, "properties": {"Datastream": "ncei", "Name": "OMAO 992.1, HI US", "Network": "UNKNOWN", "SKN": 9999.225, "total_rf_mm": 30.2}, "type": "Feature"}, {"geometry": {"coordinates": [-155.4778, 19.1987], "type": "Point"}, "properties": {"Datastream": "ncei", "Name": "PAHALA 21, HI US", "Network": "UNKNOWN", "SKN": 9999.226, "total_rf_mm": 28.5}, "type": "Feature"}, {"geometry": {"coordinates": [-154.9728, 19.5407], "type": "Point"}, "properties": {"Datastream": "ncei", "Name": "PAHOA BEACON 91.9, HI US", "Network": "UNKNOWN", "SKN": 9999.2263, "total_rf_mm": 32.8}, "type": "Feature"}, {"geometry": {"coordinates": [-157.7944, 21.2996], "type": "Point"}, "properties": {"Datastream": "ncei", "Name": "PALOLO FIRE STATION, HI US", "Network": "UNKNOWN", "SKN": 9999.2269, "total_rf_mm": 26.5}, "type": "Feature"}, {"geometry": {"coordinates": [-155.1346, 19.7145], "type": "Point"}, "properties": {"Datastream": "ncei", "Name": "PIIHONUA KPUA 89.11, HI US", "Network": "UNKNOWN", "SKN": 9999.2283, "total_rf_mm": 27.2}, "type": "Feature"}, {"geometry": {"coordinates": [-158.08917, 21.53833], "type": "Point"}, "properties": {"Datastream": "ncei", "Name": "POAMOHO EXPERIMENTAL FARM 855, HI US", "Network": "UNKNOWN", "SKN": 9999.2284, "total_rf_mm": 48.3}, "type": "Feature"}, {"geometry": {"coordinates": [-155.1275, 19.6586], "type": "Point"}, "properties": {"Datastream": "ncei", "Name": "WAIAKEA UKA 85.2, HI US", "Network": "UNKNOWN", "SKN": 9999.235, "total_rf_mm": 9.7}, "type": "Feature"}, {"geometry": {"coordinates": [-157.7803, 21.2733], "type": "Point"}, "properties": {"Datastream": "ncei", "Name": "WAIALAE KAHALA 715, HI US", "Network": "UNKNOWN", "SKN": 9999.2354, "total_rf_mm": 17.3}, "type": "Feature"}, {"geometry": {"coordinates": [-157.967, 21.4439], "type": "Point"}, "properties": {"Datastream": "ncei", "Name": "WAIAWA CF 834.13, HI US", "Network": "UNKNOWN", "SKN": 9999.2361, "total_rf_mm": 18.5}, "type": "Feature"}, {"geometry": {"coordinates": [-157.8584, 21.4465], "type": "Point"}, "properties": {"Datastream": "ncei", "Name": "WAIHEE PUMP 839.8, HI US", "Network": "UNKNOWN", "SKN": 9999.2365, "total_rf_mm": 37.8}, "type": "Feature"}, {"geometry": {"coordinates": [-159.39611000000002, 22.06583], "type": "Point"}, "properties": {"Datastream": "ncei", "Name": "WAILUA UH EXPERIMENTAL STATION, HI US", "Network": "UNKNOWN", "SKN": 9999.2377, "total_rf_mm": 8.8}, "type": "Feature"}, {"geometry": {"coordinates": [-159.44299999999998, 22.2114], "type": "Point"}, "properties": {"Datastream": "hads", "Name": "PRINCEVILLE AIRPORT NEAR KILAUEA 4W", "Network": "UNKNOWN", "SKN": 9999.2432, "total_rf_mm": 62.738}, "type": "Feature"}, {"geometry": {"coordinates": [-159.429, 21.8828], "type": "Point"}, "properties": {"Datastream": "hads", "Name": "POIPU", "Network": "UNKNOWN", "SKN": 9999.2433, "total_rf_mm": 0.508}, "type": "Feature"}, {"geometry": {"coordinates": [-155.668, 18.9928], "type": "Point"}, "properties": {"Datastream": "hads", "Name": "SOUTH POINT NEAR NAALEHU 12SSW", "Network": "UNKNOWN", "SKN": 9999.2434, "total_rf_mm": 6.604}, "type": "Feature"}, {"geometry": {"coordinates": [-157.717, 21.3667], "type": "Point"}, "properties": {"Datastream": "hads", "Name": "BELLOWS AFS AT WAIMANALO", "Network": "UNKNOWN", "SKN": 9999.2435, "total_rf_mm": 20.066}, "type": "Feature"}, {"geometry": {"coordinates": [-156.514, 20.7903], "type": "Point"}, "properties": {"Datastream": "hads", "Name": "MAALAEA BAY", "Network": "UNKNOWN", "SKN": 9999.2437, "total_rf_mm": 0.0}, "type": "Feature"}, {"geometry": {"coordinates": [-158.184, 21.4503], "type": "Point"}, "properties": {"Datastream": "hads", "Name": "WAIANAE BOAT HARBOR", "Network": "UNKNOWN", "SKN": 9999.2438, "total_rf_mm": 1.016}, "type": "Feature"}, {"geometry": {"coordinates": [-158.067, 21.4019], "type": "Point"}, "properties": {"Datastream": "hads", "Name": "HONOULIULI STREAM TRIBUTARY NEAR WAIPAHU 4WNW", "Network": "UNKNOWN", "SKN": 9999.244, "total_rf_mm": 50.8}, "type": "Feature"}, {"geometry": {"coordinates": [-155.28585, 19.99802], "type": "Point"}, "properties": {"Datastream": "scan", "Name": "Island Dairy", "Network": "SCAN", "SKN": 9999.2442, "total_rf_mm": 0.0}, "type": "Feature"}, {"geometry": {"coordinates": [-155.92914, 19.53322], "type": "Point"}, "properties": {"Datastream": "scan", "Name": "Kainaliu", "Network": "SCAN", "SKN": 9999.2443, "total_rf_mm": 204.72400000000002}, "type": "Feature"}, {"geometry": {"coordinates": [-155.59102, 19.91475], "type": "Point"}, "properties": {"Datastream": "scan", "Name": "Kemole Gulch", "Network": "SCAN", "SKN": 9999.2444, "total_rf_mm": 0.0}, "type": "Feature"}, {"geometry": {"coordinates": [-155.50863999999999, 20.0955], "type": "Point"}, "properties": {"Datastream": "scan", "Name": "Kukuihaele", "Network": "SCAN", "SKN": 9999.2445, "total_rf_mm": 55.626000000000005}, "type": "Feature"}, {"geometry": {"coordinates": [-155.53517, 19.95658], "type": "Point"}, "properties": {"Datastream": "scan", "Name": "Mana House", "Network": "SCAN", "SKN": 9999.2446, "total_rf_mm": 0.0}, "type": "Feature"}, {"geometry": {"coordinates": [-155.33183, 19.79264], "type": "Point"}, "properties": {"Datastream": "scan", "Name": "Pua Akala", "Network": "SCAN", "SKN": 9999.2447, "total_rf_mm": 0.0}, "type": "Feature"}, {"geometry": {"coordinates": [-155.42348, 19.76505], "type": "Point"}, "properties": {"Datastream": "scan", "Name": "Silver Sword", "Network": "SCAN", "SKN": 9999.2448, "total_rf_mm": 0.0}, "type": "Feature"}, {"geometry": {"coordinates": [-155.5979, 20.0096], "type": "Point"}, "properties": {"Datastream": "scan", "Name": "Waimea Plain", "Network": "SCAN", "SKN": 9999.2449, "total_rf_mm": 21.844}, "type": "Feature"}, {"geometry": {"coordinates": [-158.0, 21.315], "type": "Point"}, "properties": {"Datastream": "nws", "Name": "PTWC", "Network": "Hydronet", "SKN": 9999.3449, "total_rf_mm": 12.7}, "type": "Feature"}, {"geometry": {"coordinates": [-155.2995, 19.5205], "type": "Point"}, "properties": {"Datastream": "nws", "Name": "Kulani NWR", "Network": "Hydronet", "SKN": 9999.4449, "total_rf_mm": 257.556}, "type": "Feature"}, {"geometry": {"coordinates": [-155.1313, 19.7885], "type": "Point"}, "properties": {"Datastream": "nws", "Name": "Papaikou Well", "Network": "Hydronet", "SKN": 9999.5449, "total_rf_mm": 513.3340000000001}, "type": "Feature"}], "type": "FeatureCollection"}